block_id,block_name,district,state,centroid_lat,centroid_lon,area_sqkm,population_2020,n_villages,n_revenue_circles,mean_elevation_m,flood_frequency_per_decade,embankment_length_km,embankment_condition,n_flood_shelters,flood_shelter_capacity,nearest_hospital_km,road_connectivity,crop_area_ha,dominant_crop,flood_risk_zone,composite_vulnerability_score,source
BLK_01,Rangia,Kamrup,Assam,25.8681,91.2077,104.6,122143,72,4,33.9,7.6,35.1,Fair,11,1670,3.6,Limited,5169.0,Paddy+Jute,Medium,0.511,ASDMA Block Reports + Census 2011 — synthetic
BLK_02,Chhaygaon,Kamrup,Assam,25.7491,91.2234,300.8,155968,52,2,83.3,3.8,9.9,Critical,6,4017,9.2,All-weather,9956.0,Paddy,High,0.632,ASDMA Block Reports + Census 2011 — synthetic
BLK_03,Boko,Kamrup,Assam,26.02,91.0968,267.0,47031,109,4,38.4,6.6,12.5,Critical,5,947,20.0,All-weather,14898.0,Paddy,High,0.6,ASDMA Block Reports + Census 2011 — synthetic
BLK_04,Bongaon,Kamrup,Assam,26.0158,91.0255,314.6,134659,65,3,50.1,8.0,21.8,Fair,8,1097,2.4,All-weather,5276.0,Paddy+Jute,High,0.854,ASDMA Block Reports + Census 2011 — synthetic
BLK_05,Hajo,Kamrup,Assam,26.2641,90.9082,148.8,171346,78,5,70.6,3.5,26.5,Fair,5,1184,9.1,Limited,23418.0,Paddy+Jute,Low,0.496,ASDMA Block Reports + Census 2011 — synthetic
BLK_06,Kamalpur,Kamrup,Assam,26.0105,91.2369,236.0,57331,64,7,53.4,8.7,14.5,Fair,2,4059,4.7,Limited,17177.0,Paddy+Mustard,High,0.372,ASDMA Block Reports + Census 2011 — synthetic
BLK_07,Chamaria,Kamrup,Assam,26.0955,91.1813,119.3,130886,91,6,75.9,7.3,11.7,Fair,12,2701,18.9,All-weather,20429.0,Paddy,Medium,0.784,ASDMA Block Reports + Census 2011 — synthetic
BLK_08,Goroimari,Kamrup,Assam,25.7904,90.6075,251.0,60203,88,5,58.2,3.3,39.4,Fair,6,1788,7.9,All-weather,22885.0,Paddy,High,0.744,ASDMA Block Reports + Census 2011 — synthetic
BLK_09,Palashbari,Kamrup,Assam,25.6018,91.3228,82.9,52053,85,4,49.9,3.9,42.2,Good,9,3935,7.2,All-weather,13325.0,Paddy+Mustard,Medium,0.796,ASDMA Block Reports + Census 2011 — synthetic
BLK_10,Rani,Kamrup,Assam,26.0001,90.6575,241.6,53807,47,3,77.3,8.9,43.2,Good,8,2812,19.8,Seasonal,11546.0,Vegetables,High,0.521,ASDMA Block Reports + Census 2011 — synthetic
BLK_11,Bezera,Kamrup,Assam,25.8041,91.2561,257.5,103591,84,4,63.5,6.0,35.9,Fair,12,4977,19.5,All-weather,8011.0,Vegetables,High,0.44,ASDMA Block Reports + Census 2011 — synthetic
BLK_12,Nagarbera,Kamrup,Assam,25.8425,91.3056,290.5,127822,25,8,67.7,8.1,34.1,Good,4,4840,24.6,Seasonal,14841.0,Paddy,High,0.727,ASDMA Block Reports + Census 2011 — synthetic
